,Latitude,Longitude,City,Country,Max Temp.,Humidity,Cloudiness,Windiness,Date
0,-46.1927,168.8643,Mataura,NZ,25.38,34,0,0.14,1610424683
1,77.484,-69.3632,Qaanaaq,GL,-16.0,74,4,3.21,1610424685
2,-34.4187,19.2345,Hermanus,ZA,20.56,89,88,3.13,1610424686
3,65.5833,-171.0,Lavrentiya,RU,-24.47,83,95,4.63,1610424688
4,50.5834,-113.8687,High River,CA,0.0,60,100,7.57,1610424689
5,-34.5833,150.8552,Flinders,AU,30.56,56,100,2.24,1610424690
6,37.5683,126.9778,Seoul,KR,1.0,55,0,4.12,1610424519
7,70.6333,147.9167,Chokurdakh,RU,-33.22,83,100,1.48,1610424693
8,42.6001,-73.9662,Albany,US,-2.78,73,8,0.96,1610424696
9,-16.4096,-67.5263,Chulumani,BO,17.3,77,100,0.65,1610424697
10,45.5234,-122.6762,Portland,US,8.89,81,90,7.2,1610424516
11,0.5333,72.9333,Thinadhoo,MV,27.46,77,92,7.31,1610424699
12,54.05,122.9,Urusha,RU,-24.47,87,100,2.33,1610424700
13,-54.8,-68.3,Ushuaia,AR,6.0,75,75,13.38,1610424702
14,-42.7826,147.0587,New Norfolk,AU,23.33,43,2,0.89,1610424703
15,3.4865,102.3516,Mentakab,MY,28.52,65,95,2.43,1610424704
16,64.3833,-173.3,Provideniya,RU,-17.0,71,75,3.0,1610424450
17,62.456,-114.3525,Yellowknife,CA,-12.0,85,75,3.6,1610424662
18,65.6145,-37.6368,Tasiilaq,GL,-5.0,36,75,1.54,1610424707
19,-0.7393,-90.3518,Puerto Ayora,EC,23.33,94,13,2.14,1610424709
20,-9.8,-139.0333,Atuona,PF,25.33,80,1,6.4,1610424710
21,-24.8667,113.6333,Carnarvon,AU,29.0,70,0,8.75,1610424712
22,73.5069,80.5464,Dikson,RU,-10.29,97,98,2.9,1610424713
23,-20.5167,57.5167,Souillac,MU,26.0,94,75,7.2,1610424715
24,28.6585,-17.9182,Los Llanos de Aridane,ES,15.0,72,75,3.6,1610424716
25,46.4333,26.4,Asău,RO,-1.0,100,90,3.6,1610424717
26,69.2167,-51.1,Ilulissat,GL,-4.0,86,90,1.54,1610424718
27,43.2128,-75.4557,Rome,US,-2.78,86,90,1.27,1610424719
28,22.8167,108.3167,Nanning,CN,13.0,38,0,4.0,1610424720
29,35.7333,140.8333,Hasaki,JP,6.11,93,75,4.63,1610424721
30,42.1584,-72.3287,Palmer,US,-5.56,93,1,1.68,1610424723
31,37.1041,-113.5841,Saint George,US,3.89,32,1,2.57,1610424540
32,-21.3585,55.7679,Saint-Philippe,RE,29.0,74,75,3.6,1610424727
33,-34.5322,20.0403,Bredasdorp,ZA,19.0,94,93,6.69,1610424729
34,-36.8167,174.45,Muriwai Beach,NZ,25.0,74,45,4.47,1610424730
35,40.8,-96.667,Lincoln,US,1.67,75,1,3.85,1610424641
36,56.0815,99.6342,Chunskiy,RU,-27.93,86,35,1.99,1610424732
37,-33.918,25.5701,Port Elizabeth,ZA,20.0,94,90,4.63,1610424733
38,-8.9266,125.4092,Airai,TL,23.67,84,15,0.71,1610424734
39,-53.15,-70.9167,Punta Arenas,CL,5.0,81,0,10.8,1610424736
40,26.7292,33.9365,Safaga,EG,18.0,52,0,3.6,1610424737
41,69.4541,-133.0374,Tuktoyaktuk,CA,-16.0,85,90,7.72,1610424738
42,-24.7911,-50.0119,Castro,BR,19.23,97,41,3.69,1610424739
43,-25.4,-70.4833,Taltal,CL,17.72,75,69,0.46,1610424740
44,47.1483,42.4633,Zimovniki,RU,-2.82,95,23,2.39,1610424741
45,-4.1944,-40.4767,Varjota,BR,23.15,76,100,2.92,1610424730
46,-38.2667,141.9667,Codrington,AU,17.94,55,43,5.89,1610424665
47,69.4865,88.3972,Talnakh,RU,-26.67,88,71,2.15,1610424745
48,51.1667,94.5,Bay-Khaak,RU,-14.98,92,100,1.09,1610424748
49,-6.1349,12.3689,Soyo,AO,24.6,83,87,1.71,1610424751
50,-33.65,115.3333,Busselton,AU,27.22,42,7,1.79,1610424753
51,27.9333,-110.9,Guaymas,MX,14.44,26,0,0.45,1610424754
52,69.2408,19.2344,Storsteinnes,NO,-5.0,72,0,3.44,1610424755
53,7.7029,27.9953,Wau,SS,19.39,26,9,2.46,1610424756
54,70.3705,31.1107,Vardø,NO,-9.0,79,75,9.77,1610424758
55,-23.6649,27.7443,Ellisras,ZA,20.63,75,0,3.47,1610424759
56,-46.1333,167.6833,Tuatapere,NZ,21.24,48,15,2.49,1610424760
57,42.097,-79.2353,Jamestown,US,-0.56,74,90,6.69,1610424761
58,-12.2569,44.5319,Domoni,KM,26.75,79,70,4.95,1610424762
59,50.8284,-0.1395,Brighton,GB,8.89,100,100,2.68,1610424502
60,45.6721,-118.7886,Pendleton,US,6.0,61,20,4.1,1610424765
61,50.6996,-127.4199,Port Hardy,CA,10.0,87,90,10.8,1610424766
62,43.4832,-8.2369,Ferrol,ES,-1.0,93,20,1.03,1610424767
63,63.7506,-68.5145,Iqaluit,CA,-17.0,71,20,4.12,1610424768
64,71.6872,128.8694,Tiksi,RU,-38.11,82,73,3.33,1610424769
65,-20.3428,57.7575,Bambous Virieux,MU,27.78,94,75,7.2,1610424770
66,-46.6,168.3333,Bluff,NZ,17.89,62,16,2.88,1610424772
67,-21.2,-175.2,Vaini,TO,28.0,89,75,4.63,1610424774
68,14.8961,-24.4956,São Filipe,CV,20.99,73,14,5.67,1610424775
69,-23.1203,-134.9692,Rikitea,PF,25.73,78,37,9.46,1610424776
70,-28.7667,114.6,Geraldton,AU,28.0,44,97,9.26,1610424777
71,41.3888,2.159,Barcelona,ES,4.44,69,0,7.2,1610424179
72,3.0707,172.7902,Butaritari,KI,27.09,81,92,9.28,1610424781
73,-7.4706,-34.8086,Pitimbu,BR,25.0,94,40,3.5,1610424782
74,4.25,-54.3833,Grand-Santi,GF,21.88,97,100,0.86,1610424783
75,68.2191,-135.0107,Aklavik,CA,-15.0,85,90,3.21,1610424784
76,-25.2406,130.9889,Yulara,AU,38.0,11,0,6.69,1610424787
77,55.7406,22.3644,Varniai,LT,-1.0,93,90,8.23,1610424788
78,19.7297,-155.09,Hilo,US,24.0,73,20,1.54,1610424789
79,-20.0064,57.6608,Grand Gaube,MU,27.78,84,100,4.02,1610424776
80,69.7008,170.3133,Pevek,RU,-36.08,85,39,0.52,1610424791
81,-3.6667,152.4333,Namatanai,PG,28.01,76,93,2.05,1610424792
82,-42.913,147.3532,Sandy Bay,AU,23.33,45,20,9.26,1610424509
83,-22.2763,166.4572,Noumea,NC,28.0,78,0,5.66,1610424770
84,-6.9811,-34.8339,Cabedelo,BR,25.0,94,40,3.1,1610424796
85,1.7427,98.7792,Sibolga,ID,27.31,74,100,0.79,1610424797
86,42.7762,-9.0603,Muros,ES,2.22,93,2,2.54,1610424799
87,14.8436,121.9697,Burdeos,PH,24.76,69,93,8.1,1610424800
88,9.15,39.0333,Sendafa,ET,11.0,76,75,3.09,1610424801
89,-29.9533,-71.3436,Coquimbo,CL,15.0,88,0,2.57,1610424803
90,5.7856,-6.6083,Soubre,CI,22.29,97,16,1.6,1610424804
91,5.9465,121.3076,Kambing,PH,27.66,76,94,0.16,1610424805
92,2.6708,72.8944,Kudahuvadhoo,MV,27.48,77,78,6.02,1610424806
93,23.25,82.55,Baikunthpur,IN,19.41,43,0,0.74,1610424807
94,66.4167,112.4,Udachny,RU,-33.5,78,95,2.43,1610424808
95,39.1502,-123.2078,Ukiah,US,10.0,81,1,0.95,1610424810
96,64.2539,-15.2082,Hofn,IS,-0.89,85,0,3.17,1610424812
97,-13.4584,25.8338,Kasempa,ZM,17.6,98,100,2.1,1610424813
98,7.0419,134.2556,Kloulklubed,PW,29.0,79,90,3.09,1610424814
99,56.5502,57.1366,Sars,RU,-24.01,88,100,5.25,1610424815
100,-30.6733,-51.3958,Tapes,BR,22.01,88,100,2.19,1610424817
101,54.3161,-130.3201,Prince Rupert,CA,7.0,70,90,6.17,1610424818
102,47.8043,67.7144,Zhezkazgan,KZ,-5.0,86,90,11.0,1610424819
103,47.9781,35.9102,Novomykolayivka,UA,-2.0,80,75,1.0,1610424820
104,71.2906,-156.7887,Barrow,US,-16.0,85,90,10.29,1610424822
105,53.0596,14.2815,Schwedt,DE,1.67,79,100,9.13,1610424824
106,78.2186,15.6401,Longyearbyen,SJ,-8.0,79,20,2.06,1610424825
107,72.7868,-56.1549,Upernavik,GL,-5.79,95,99,6.85,1610424752
108,-33.5906,26.891,Port Alfred,ZA,20.56,97,77,5.03,1610424827
109,-25.1667,45.05,Beloha,MG,25.49,73,0,4.36,1610424828
110,-2.5744,150.7967,Kavieng,PG,29.27,72,100,4.39,1610424829
111,35.5281,-108.7426,Gallup,US,-5.56,57,1,2.48,1610424830
112,9.285,105.7244,Bac Lieu,VN,26.31,61,63,3.98,1610424832
113,-33.9258,18.4232,Cape Town,ZA,20.0,82,0,3.6,1610424767
114,-22.9661,-42.0278,Arraial do Cabo,BR,25.0,88,20,7.2,1610424554
115,44.0625,-103.1463,Rapid Valley,US,2.22,68,1,2.06,1610424835
116,50.7214,136.6319,Solnechnyy,RU,-18.48,84,13,1.0,1610424836
117,-20.7333,139.5,Mount Isa,AU,36.0,28,40,2.06,1610424837
118,60.1432,-45.2371,Nanortalik,GL,-0.96,92,100,2.64,1610424838
119,-3.8004,102.2655,Bengkulu,ID,23.79,91,100,5.78,1610424840
120,66.0833,76.6333,Novy Urengoy,RU,-19.86,92,99,5.39,1610424841
121,-3.8278,-78.7594,Yantzaza,EC,19.16,84,78,0.39,1610424842
122,54.3708,92.1358,Idrinskoye,RU,-26.01,85,0,1.06,1610424843
123,52.5667,13.0833,Falkensee,DE,1.67,82,100,3.13,1610424844
124,-6.8844,112.2051,Labuhan,ID,29.6,73,100,3.72,1610424846
125,-20.3167,118.5667,Port Hedland,AU,36.0,52,1,6.69,1610424847
126,10.9995,122.6711,Dingle,PH,25.06,84,93,8.09,1610424848
127,32.6667,-17.1,Ponta do Sol,PT,15.0,55,40,4.63,1610424849
128,6.6221,73.07,Kulhudhuffushi,MV,27.32,76,100,6.98,1610424798
129,-17.7333,-149.15,Tautira,PF,30.0,61,75,2.06,1610424853
130,38.5167,-28.7,Ribeira Grande,PT,17.07,86,100,9.99,1610424854
131,-15.1961,12.1522,Mossamedes,AO,21.45,66,63,2.5,1610424855
132,5.0268,118.327,Lahad Datu,MY,30.01,69,68,1.16,1610424856
133,-30.1811,-50.2056,Cidreira,BR,23.24,94,100,5.45,1610424857
134,-38.4667,176.7,Murupara,NZ,23.89,70,96,1.34,1610424858
135,32.7668,-97.8003,Parker,US,2.22,87,0,3.5,1610424859
136,65.282,-126.8329,Norman Wells,CA,-15.0,85,75,2.06,1610424601
137,70.4692,-68.5914,Clyde River,CA,-20.0,84,90,5.66,1610424862
138,40.4272,71.7189,Yangi Marg`ilon,UZ,-4.0,63,0,4.12,1610424632
139,68.75,161.3,Cherskiy,RU,-36.88,82,0,0.65,1610424584
140,-20.4081,57.7,Mahébourg,MU,26.0,94,75,7.2,1610424689
141,-46.2817,169.8464,Kaitangata,NZ,16.67,73,0,4.02,1610424866
142,-5.1989,-35.4608,Touros,BR,25.0,83,40,1.54,1610424868
143,41.3712,-73.414,Bethel,US,-3.89,93,1,1.57,1610424869
144,-13.7,-76.2167,Pisco,PE,21.11,88,0,2.57,1610424870
145,71.9667,102.5,Khatanga,RU,-28.15,88,100,2.71,1610424872
146,64.5667,143.2,Ust-Nera,RU,-34.44,74,88,1.45,1610424873
147,-0.6,73.0833,Hithadhoo,MV,27.39,76,75,7.26,1610424875
148,54.047,61.7455,Bobrovka,RU,-22.38,90,100,5.07,1610424876
149,26.1842,127.7558,Nishihara,JP,13.0,58,90,8.23,1610424877
150,13.2167,-59.5167,Bathsheba,BB,26.0,73,40,9.26,1610424878
151,22.8909,-109.9124,Cabo San Lucas,MX,17.0,72,1,1.54,1610424879
152,-17.8833,15.0667,Ongandjera,NA,20.25,52,94,2.78,1610424880
153,61.5996,5.0328,Florø,NO,-1.0,93,40,3.6,1610424882
154,30.2131,-93.2044,Lake Charles,US,1.11,80,1,3.01,1610424883
155,49.9811,92.0667,Ulaangom,MN,-24.68,83,44,0.27,1610424884
156,4.8699,-2.2405,Esim,GH,26.06,86,1,4.02,1610424885
157,-16.4833,-151.75,Faanui,PF,27.72,74,100,8.26,1610424886
158,12.1794,-0.3517,Koupéla,BF,21.87,21,0,3.74,1610424887
159,-37.6167,-73.65,Lebu,CL,11.13,75,0,8.06,1610424620
160,50.1001,-91.917,Sioux Lookout,CA,-7.0,93,20,2.06,1610424890
161,-20.9667,164.7,Voh,NC,29.63,74,94,1.69,1610424891
162,3.9366,41.867,Mandera,KE,23.63,49,12,3.89,1610424892
163,11.5,42.5,Djibouti,DJ,23.0,73,75,1.54,1610424893
164,64.8569,-147.8028,College,US,-12.0,85,75,1.3,1610424809
165,-38.3739,-60.2798,Tres Arroyos,AR,11.06,60,0,2.32,1610424895
166,30.6485,-91.1565,Zachary,US,2.78,80,90,3.6,1610424897
167,56.1138,10.1725,Holme,DK,0.0,93,48,2.57,1610424898
168,-33.0117,17.9442,Saldanha,ZA,16.0,82,0,1.54,1610424899
169,42.4252,68.795,Arys,KZ,3.0,44,0,5.0,1610424900
170,51.9,-8.95,Macroom,IE,9.44,93,75,7.2,1610424901
171,38.8876,-76.5119,Mayo,US,1.11,100,1,1.83,1610424811
172,59.7035,30.7861,Nikolskoye,RU,-12.78,85,75,7.0,1610424905
173,14.3188,2.0866,Ouallam,NE,21.61,21,0,4.38,1610424906
174,55.7435,-97.8558,Thompson,CA,-8.0,100,90,1.03,1610424699
175,62.2266,-6.589,Klaksvík,FO,3.0,70,75,8.23,1610424908
176,25.7333,86.9833,Bihārīganj,IN,18.21,42,2,4.06,1610424625
177,62.7161,129.6658,Namtsy,RU,-49.0,58,81,1.0,1610424912
178,35.8614,14.3822,Dingli,MT,12.78,82,0,4.12,1610424913
179,55.3053,83.6104,Moshkovo,RU,-31.0,76,40,2.0,1610424914
180,17.0151,54.0924,Salalah,OM,21.0,24,0,0.51,1610424915
181,-12.1167,-73.0,Pangoa,PE,20.49,95,100,1.0,1610424918
182,39.5994,-110.8107,Price,US,-11.0,79,1,0.42,1610424919
183,-28.55,16.4333,Oranjemund,NA,17.3,87,99,3.73,1610424920
184,47.4257,-120.2812,East Wenatchee Bench,US,0.56,100,90,2.06,1610424921
185,-21.2078,-159.775,Avarua,CK,29.0,70,75,7.2,1610424922
186,63.8424,-22.4338,Grindavik,IS,1.0,80,75,4.63,1610424924
187,31.6,131.3667,Nichinan,JP,11.0,58,40,6.17,1610424925
188,-38.0023,-57.5575,Mar del Plata,AR,15.56,58,0,3.09,1610424700
189,-15.5333,167.1667,Luganville,VU,30.04,73,100,2.88,1610424928
190,20.5169,-13.0499,Atar,MR,14.47,41,100,4.05,1610424929
191,20.8947,-156.47,Kahului,US,25.0,65,40,4.63,1610424663
192,-5.6667,132.75,Tual,ID,29.66,68,17,3.54,1610424932
193,54.675,20.1347,Tsimmerbude,RU,0.0,86,75,6.0,1610424933
194,50.1489,-95.8811,Pinawa,CA,-7.01,97,100,2.4,1610424934
195,5.5577,95.3222,Banda Aceh,ID,28.52,70,99,4.77,1610424935
196,39.4851,-80.1426,Fairmont,US,-1.11,81,1,1.99,1610424768
197,-33.0153,27.9116,East London,ZA,21.0,100,40,1.03,1610424937
198,17.1167,82.2667,Pithāpuram,IN,26.0,65,20,1.54,1610424939
199,-0.8725,14.8206,Ewo,CG,22.95,82,18,2.49,1610424940
200,33.0833,-16.3333,Camacha,PT,13.0,58,75,2.57,1610424941
201,24.0261,-106.8814,El Carrizo,MX,14.98,63,0,1.83,1610424942
202,43.5357,-5.6615,Gijón,ES,2.78,90,2,2.07,1610424668
203,-39.0333,177.3667,Wairoa,NZ,23.33,60,13,4.02,1610424945
204,61.2767,108.0108,Yerbogachën,RU,-35.55,83,45,1.28,1610424946
205,-42.8794,147.3294,Hobart,AU,23.33,45,20,9.26,1610424754
206,-34.0033,24.7314,Kruisfontein,ZA,20.0,95,100,5.84,1610424948
207,62.5333,155.8,Omsukchan,RU,-29.43,85,100,0.98,1610424949
208,25.0,88.15,Ingrāj Bāzār,IN,21.17,35,3,3.98,1610424950
209,6.1241,81.1185,Hambantota,LK,26.0,100,40,2.57,1610424952
210,59.5764,25.7214,Loksa,EE,-2.0,93,90,7.2,1610424953
211,66.0449,-17.3389,Husavik,IS,-6.62,88,0,4.07,1610424954
212,-15.4311,-74.6158,Acarí,PE,21.78,71,100,1.84,1610424955
213,37.8086,120.7508,Dengzhou,CN,0.67,77,0,7.54,1610424956
214,64.8378,-147.7164,Fairbanks,US,-12.0,92,20,0.51,1610424897
215,48.0167,16.7667,Bruck an der Leitha,AT,-6.67,93,0,0.51,1610424959
216,36.9559,36.2,Erzin,TR,12.78,64,100,4.02,1610424960
217,39.5963,-119.776,Sun Valley,US,3.0,60,90,2.06,1610424961
218,51.3223,42.7678,Kamenka,RU,-11.33,97,100,2.45,1610424962
219,-42.7692,-65.0385,Puerto Madryn,AR,13.85,47,15,4.07,1610424963
220,44.2333,27.2167,Grădiştea,RO,3.89,84,100,3.13,1610424965
221,69.3,139.9,Deputatsky,RU,-40.18,78,0,0.59,1610424966
222,22.2394,68.9678,Dwārka,IN,21.2,39,24,7.9,1610424967
223,29.5833,-9.5,Tiznit Province,MA,8.15,71,9,0.86,1610424968
224,18.4167,-64.6167,Road Town,VG,25.0,83,71,3.13,1610424969
225,25.2867,51.5333,Doha,QA,16.0,72,0,2.06,1610424881
226,61.3614,63.5842,Sovetskiy,RU,-31.47,87,0,0.66,1610424972
227,71.9167,114.0833,Saskylakh,RU,-32.8,84,100,3.15,1610424973
228,57.8406,108.3492,Alekseyevsk,RU,-24.75,86,100,1.36,1610424974
229,34.1667,77.5833,Leh,IN,-14.89,48,0,0.86,1610424976
230,39.4696,3.1483,Felanitx,ES,2.22,87,20,1.03,1610424977
231,64.5011,-165.4064,Nome,US,-10.0,73,90,8.23,1610424979
232,-33.8667,121.9,Esperance,AU,29.0,28,96,3.09,1610424980
233,-9.4333,159.95,Honiara,SB,27.02,85,100,3.49,1610424731
234,-22.9337,26.5703,Kalamare,BW,19.52,73,1,6.49,1610424982
235,37.7167,-25.4333,Vila Franca do Campo,PT,16.0,94,90,4.63,1610424983
236,45.3929,47.3707,Lagan,RU,-1.07,96,91,0.79,1610424984
237,-35.6167,174.5,Ngunguru,NZ,25.0,61,77,4.47,1610424985
238,58.9417,69.1325,Turtas,RU,-31.11,86,20,2.29,1610424987
239,-3.7703,-70.3831,Puerto Nariño,CO,25.0,100,75,0.79,1610424988
240,-8.45,115.6167,Amlapura,ID,30.0,79,20,3.6,1610424989
241,21.4022,-157.7394,Kailua,US,26.0,69,75,3.6,1610424990
242,60.7522,-137.5108,Haines Junction,CA,-11.0,85,92,0.51,1610424991
243,-26.3667,-70.05,Diego de Almagro,CL,14.15,48,83,0.23,1610424992
244,-0.9492,100.3543,Padang,ID,27.41,72,100,1.28,1610424994
245,-14.25,129.55,Port Keats,AU,33.79,55,91,3.07,1610424995
246,39.2446,55.5154,Bereket,TM,2.75,78,0,3.24,1610424996
247,57.0531,-135.33,Sitka,US,5.0,81,90,4.63,1610424997
248,44.1539,-87.5693,Two Rivers,US,0.56,86,90,4.63,1610424998
249,47.3821,-61.8597,Cap-aux-Meules,CA,-3.0,74,99,1.03,1610425000
250,56.555,76.6271,Kyshtovka,RU,-29.35,86,100,4.23,1610425002
251,20.7,-105.2,Ixtapa,MX,19.0,88,20,1.12,1610425003
252,9.1104,18.3463,Kibala,TD,17.0,59,0,1.47,1610425004
253,38.9556,-90.1868,Godfrey,US,-2.78,93,1,3.6,1610425005
254,45.65,0.15,Angoulême,FR,3.33,81,90,3.09,1610425006
255,47.6666,-52.7314,Torbay,CA,-2.78,80,90,6.17,1610425007
256,-35.1667,173.1667,Ahipara,NZ,21.37,63,77,2.05,1610425010
257,51.55,-9.2667,Skibbereen,IE,9.0,93,75,7.2,1610425011
258,52.85,-102.3842,Hudson Bay,CA,-4.66,94,77,2.99,1610425012
259,-34.4833,-54.3333,Rocha,UY,20.73,92,100,6.66,1610425013
260,22.7333,-105.85,Isla del Bosque,MX,15.0,94,1,2.12,1610425014
261,7.9986,124.2928,Marawi,PH,26.11,89,92,1.79,1610425016
262,-12.7333,-69.1833,Tambopata,PE,23.55,94,99,1.42,1610425017
263,49.3033,43.9796,Ilovlya,RU,-5.0,80,90,3.0,1610425018
264,28.2333,83.9833,Pokhara,NP,17.73,39,9,1.93,1610425019
265,22.6783,-3.9836,Taoudenni,ML,13.61,35,99,4.19,1610425020
266,18.6109,121.1657,Namuac,PH,21.12,84,82,7.71,1610425022
267,4.9247,6.2642,Yenagoa,NG,23.95,92,2,0.63,1610425023
268,48.0457,-65.4926,Bonaventure,CA,-9.0,86,95,2.06,1610425024
269,2.0371,45.3438,Mogadishu,SO,24.02,78,0,8.33,1610425025
270,4.423,-7.3528,Tabou,CI,25.12,87,71,3.67,1610425026
271,21.0917,-87.45,Kantunilkín,MX,22.0,100,90,5.66,1610425028
272,5.4112,100.3354,George Town,MY,31.0,55,20,5.66,1610425029
273,-8.103,156.8419,Gizo Government Station,SB,27.51,82,100,5.6,1610425030
274,22.85,69.7333,Mundra,IN,20.01,40,24,7.42,1610425031
275,6.8833,73.1,Dhidhdhoo,MV,27.52,76,100,7.43,1610425032
276,-19.9842,57.6142,Cap Malheureux,MU,27.78,84,100,4.47,1610425033
277,38.9785,-76.4922,Annapolis,US,1.11,100,1,2.35,1610425035
278,30.4833,-115.95,San Quintín,MX,14.55,54,0,0.57,1610425036
279,9.4942,50.8122,Bandarbeyla,SO,22.15,66,5,10.44,1610425037
280,10.6296,-74.9206,Sabanalarga,CO,27.0,74,0,3.6,1610425038
281,49.6333,117.3167,Zabaykal'sk,RU,-18.28,89,100,1.09,1610425039
282,40.661,-7.9097,Viseu,PT,0.56,70,0,2.68,1610425041
283,-14.6585,17.691,Menongue,AO,17.12,85,100,1.66,1610425043
284,42.3256,-83.331,Garden City,US,-2.78,80,90,5.14,1610425044
285,39.3558,-9.3811,Peniche,PT,4.44,52,0,1.79,1610425045
286,65.3667,64.6667,Muzhi,RU,-22.61,79,98,1.46,1610425046
287,38.5,29.4167,Uşak Province,TR,8.28,86,45,3.66,1610424871
288,-10.6167,150.6667,Samarai,PG,30.82,69,77,4.28,1610425049
289,-22.9575,14.5053,Walvis Bay,NA,20.0,88,75,1.03,1610425050
290,5.8933,95.3214,Sabang,ID,27.6,79,100,10.39,1610425051
291,13.9297,41.6925,Edd,ER,22.88,64,51,6.44,1610425052
292,-25.6533,-48.5128,Pontal do Paraná,BR,20.0,84,11,5.36,1610425053
293,30.9667,61.8833,Zaranj,AF,-2.0,43,0,0.25,1610425054
294,-31.6333,-60.7,Santa Fe,AR,21.24,66,100,7.02,1610425036
295,-19.55,169.2667,Isangel,VU,27.0,94,90,3.19,1610425055
296,34.6851,135.8049,Nara,JP,4.0,93,75,1.03,1610425058
297,11.2833,-15.8333,Bubaque,GW,26.32,50,89,8.25,1610425059
298,41.591,9.2795,Porto-Vecchio,FR,3.0,100,0,1.03,1610425060
299,39.05,-27.9833,Lagoa,PT,16.69,86,100,7.25,1610425061
300,58.7372,29.8453,Luga,RU,-10.55,96,100,4.3,1610425063
301,60.8953,131.9608,Amga,RU,-39.46,78,79,0.43,1610425064
302,39.5108,54.3671,Balkanabat,TM,4.45,80,7,1.62,1610425065
303,21.3906,-158.1547,Nānākuli,US,26.0,69,75,1.37,1610425067
304,-16.1667,49.7667,Mananara,MG,25.36,72,6,1.39,1610425068
305,22.5667,59.5289,Sur,OM,20.44,42,56,5.04,1610425070
306,-40.8135,-62.9967,Viedma,AR,14.05,36,0,3.45,1610425072
307,64.8989,45.7622,Leshukonskoye,RU,-23.87,87,76,1.29,1610425073
308,-5.5569,-80.8222,Sechura,PE,22.53,73,52,5.17,1610425074
309,37.7333,-25.6667,Ponta Delgada,PT,16.0,94,90,4.63,1610425075
310,-2.6741,141.3028,Vanimo,PG,29.97,68,51,3.36,1610425076
311,-21.6403,-41.0511,São João da Barra,BR,24.53,86,4,7.68,1610425078
312,33.6668,-95.5836,Lamar,US,2.0,64,1,2.06,1610425079
313,27.9769,-114.0611,Guerrero Negro,MX,15.17,35,0,4.03,1610424874
314,47.5,8.75,Winterthur,CH,-2.0,69,20,2.06,1610425081
315,-2.0226,147.2712,Lorengau,PG,29.11,75,100,3.53,1610425082
316,16.8634,-99.8901,Acapulco de Juárez,MX,26.0,78,75,1.03,1610424821
317,55.619,38.1182,Il’inskiy,RU,-10.0,92,75,2.0,1610425085
318,56.2749,51.508,Kizner,RU,-24.15,89,94,2.08,1610425087
319,55.3422,-131.6461,Ketchikan,US,5.0,93,90,11.83,1610425088
320,44.1003,-70.2148,Lewiston,US,-5.0,93,1,1.54,1610425089
321,33.072,-16.3415,Porto Santo,PT,13.0,58,75,2.57,1610425091
322,36.3868,4.3989,Tazmalt,DZ,6.16,82,82,2.09,1610425092
323,-22.2833,44.5167,Ankazoabo,MG,25.7,70,0,1.48,1610425093
324,13.6667,-14.8833,Kuntaur,GM,21.2,23,95,3.92,1610425094
325,48.2766,-116.5533,Sandpoint,US,2.22,93,90,0.87,1610425095
326,69.3143,16.1194,Andenes,NO,-3.0,68,0,8.83,1610425096
327,33.194,-82.5271,Avera,US,7.0,96,90,3.09,1610425098
328,32.8752,13.1875,Tripoli,LY,15.48,81,74,2.35,1610425099
329,40.5982,-124.1573,Fortuna,US,14.44,58,75,10.29,1610425100
330,41.5388,-8.6151,Barcelos,PT,3.0,75,0,3.6,1610425010
331,68.0546,166.4372,Bilibino,RU,-31.73,80,1,1.25,1610425103
332,47.5702,-59.1367,Channel-Port aux Basques,CA,-1.72,93,92,6.96,1610425105
333,38.6979,-9.4215,Cascais,PT,5.56,62,0,4.09,1610424920
334,-29.6643,17.8865,Springbok,ZA,17.36,51,3,0.82,1610425107
335,69.1933,33.2531,Snezhnogorsk,RU,-23.0,84,20,1.0,1610425108
336,-14.9003,50.2788,Antalaha,MG,25.12,78,17,2.01,1610425109
337,35.1333,140.3,Katsuura,JP,5.0,75,75,5.14,1610425110
338,22.2855,114.1577,Hong Kong,HK,14.44,23,10,0.89,1610424855
339,32.7933,12.4885,Şabrātah,LY,14.31,84,55,1.95,1610425113
340,-3.4167,114.85,Martapura,ID,28.0,78,94,3.09,1610425115
341,28.963,-13.5477,Arrecife,ES,15.0,72,20,4.12,1610425116
342,38.3733,-8.5144,Alcácer do Sal,PT,6.11,87,0,4.63,1610425117
343,-26.6481,15.1594,Lüderitz,NA,17.56,85,11,5.79,1610425118
344,47.1667,-1.0,Arrondissement de Cholet,FR,6.67,87,100,5.12,1610425120
345,7.7669,-72.225,San Cristobal,VE,17.19,87,34,1.11,1610425122
346,22.0752,-159.319,Kapaa,US,24.0,83,40,3.6,1610425123
347,16.9206,97.3714,Thaton,MM,27.7,40,5,3.88,1610425124
348,-23.85,151.25,Gladstone,AU,29.0,54,75,8.75,1610425125
349,10.2849,22.7882,Birao,CF,16.75,30,0,3.35,1610425127
350,63.1792,14.6357,Östersund,SE,-3.0,93,20,7.2,1610425128
351,68.1214,13.5031,Gravdal,NO,-2.0,64,20,5.66,1610425129
352,29.5667,-104.4167,Ojinaga,MX,4.0,56,1,3.09,1610425130
353,-45.8667,-67.5,Comodoro Rivadavia,AR,14.0,35,0,9.26,1610425013
354,-16.7,-151.0167,Fare,PF,27.23,77,100,8.52,1610425132
355,49.4867,105.9228,Darhan,MN,-16.81,90,100,2.79,1610425133
356,37.3394,-121.895,San Jose,US,10.56,81,75,0.32,1610425065
357,30.4323,116.2922,Jinxi,CN,8.91,46,0,3.87,1610425136
358,34.0556,-117.1825,Redlands,US,14.0,24,1,1.52,1610425137
359,51.226,-58.6502,Saint-Augustin,CA,-10.28,85,0,4.08,1610425138
360,52.0333,80.3833,Volchikha,RU,-11.81,93,94,6.02,1610425139
361,61.994,-49.6678,Paamiut,GL,-3.04,98,100,6.41,1610425141
362,2.4167,30.9855,Paidha,UG,17.87,47,14,1.51,1610425142
363,-3.2033,-52.2064,Altamira,BR,22.18,96,100,1.03,1610425143
364,-35.3333,-72.4167,Constitución,CL,12.95,60,0,3.99,1610424956
365,28.7167,-111.5833,La Providencia,MX,12.22,56,0,0.89,1610425145
366,-45.4167,167.7167,Te Anau,NZ,22.37,47,0,2.64,1610425146
367,-0.6136,-47.3561,Salinópolis,BR,26.01,85,63,4.44,1610425148
368,41.9563,42.9566,Khani,GE,9.0,100,90,3.6,1610425149
369,-33.6971,-53.4616,Chui,UY,20.89,91,100,3.25,1610425150
370,48.1021,11.2977,Gilching,DE,-3.33,86,75,4.12,1610425151
371,66.3167,-179.1667,Egvekinot,RU,-26.85,84,84,6.34,1610425152
372,-45.8742,170.5036,Dunedin,NZ,18.09,72,0,5.66,1610425153
373,49.7834,-74.8492,Chapais,CA,-8.0,93,90,3.09,1610425066
374,14.0453,124.1694,Pandan,PH,24.9,74,99,8.83,1610425156
375,42.8,93.45,Kumul,CN,-6.47,78,0,1.16,1610425157
376,57.3726,46.4629,Tonkino,RU,-22.53,90,98,2.5,1610425158
377,61.15,149.6333,Ust'-Omchug,RU,-28.76,82,88,1.97,1610425159
378,18.6667,105.6667,Vinh,VN,14.95,46,50,6.08,1610425029
379,59.3833,143.3,Okhotsk,RU,-22.69,90,100,3.2,1610425162
380,26.1247,127.6694,Itoman,JP,14.0,67,75,9.77,1610425163
381,59.2353,163.0719,Ossora,RU,-20.03,89,71,3.42,1610425164
382,31.7561,25.0865,Al Bardīyah,LY,17.36,56,100,4.83,1610425165
383,65.6118,72.6842,Staryy Nadym,RU,-22.2,91,94,4.9,1610425166
384,37.0286,-7.8411,Olhão,PT,4.0,75,0,3.09,1610425168
385,-38.9516,-68.0591,Neuquén,AR,10.0,57,0,1.54,1610425170
386,52.1582,82.2173,Shipunovo,RU,-13.82,95,98,5.45,1610425171
387,5.3511,-0.6231,Winneba,GH,26.0,89,20,4.63,1610425172
388,60.3725,93.0408,Severo-Yeniseyskiy,RU,-28.46,88,100,2.03,1610425173
389,13.5928,-89.8275,Acajutla,SV,26.09,64,38,2.12,1610425174
390,5.3505,48.5268,Hobyo,SO,23.58,73,15,9.0,1610425175
391,-14.4667,132.2667,Katherine,AU,35.0,43,3,2.57,1610425177
392,14.3,-91.9167,Champerico,GT,18.89,98,22,1.79,1610425178
393,14.5333,20.9167,Biltine,TD,18.7,25,0,6.52,1610425179
394,-0.9,-89.6,Puerto Baquerizo Moreno,EC,23.14,87,3,4.21,1610425180
395,-20.4431,-53.7592,Ribas do Rio Pardo,BR,26.46,61,77,0.75,1610425181
396,18.3851,42.4509,Faya,SA,6.0,87,75,3.6,1610425182
397,66.8333,70.8333,Yar-Sale,RU,-17.46,93,100,4.31,1610425184
398,24.4667,54.3667,Abu Dhabi,AE,16.0,88,0,4.0,1610424932
399,42.2506,-75.833,Broome,US,-0.56,69,90,2.06,1610424894
400,50.1339,82.5239,Belūsovka,KZ,-12.0,67,83,4.0,1610425187
401,34.6391,-120.4579,Lompoc,US,10.0,93,1,2.06,1610424985
402,-6.8205,30.4389,Karema,TZ,21.08,82,100,2.07,1610425189
403,13.2954,19.6966,Umm Hājar,TD,16.68,28,2,4.42,1610425191
404,-23.65,-70.4,Antofagasta,CL,18.0,77,75,2.57,1610425098
405,57.79,-152.4072,Saint Paul Harbor,US,2.0,87,90,6.69,1610425193
406,65.9667,78.3667,Urengoy,RU,-20.62,92,97,4.59,1610425194
407,12.996,15.7293,Massakory,TD,18.08,26,0,4.63,1610425195
408,48.1863,0.6536,La Ferté-Bernard,FR,6.0,87,90,3.6,1610425196
409,70.8578,29.0864,Berlevåg,NO,-9.0,67,0,13.89,1610425198
410,18.8003,110.3967,Wanning,CN,15.74,51,0,6.8,1610425199
411,-34.7333,135.8667,Port Lincoln,AU,19.89,52,1,5.26,1610425200
412,66.1451,-65.7125,Pangnirtung,CA,-20.08,85,32,1.1,1610425203
413,-30.2752,-57.6007,Bella Union,UY,21.47,94,100,4.87,1610425204
414,20.0667,79.6667,Mūl,IN,25.69,43,71,2.56,1610425206
415,63.2842,118.3319,Nyurba,RU,-38.99,81,88,0.33,1610425207
416,37.15,122.3833,Yatou,CN,1.44,80,0,6.33,1610425208
417,65.75,150.85,Zyryanka,RU,-39.63,81,89,0.26,1610425209
418,-21.3667,55.6167,Saint-Joseph,RE,29.0,74,75,3.6,1610425210
419,4.1363,96.1285,Meulaboh,ID,29.05,66,74,1.95,1610425211
420,8.4596,25.678,Raja,SS,15.58,33,1,1.87,1610425213
421,39.8161,109.9776,Dongsheng,CN,-4.79,64,0,9.37,1610425214
422,39.8885,4.2658,Mahon,ES,6.0,75,40,2.06,1610425215
423,66.7697,123.3711,Zhigansk,RU,-43.08,78,74,4.28,1610425217
424,12.2188,125.4808,Alugan,PH,25.43,89,100,8.86,1610425218
425,-20.2078,57.7625,Quatre Cocos,MU,27.78,94,75,7.2,1610425220
426,45.2519,38.1181,Slavyansk-na-Kubani,RU,-1.0,86,100,9.0,1610425221
427,41.7597,86.1469,Korla,CN,-8.58,81,0,3.61,1610425223
428,28.017,-97.5169,San Patricio,US,5.0,87,1,2.57,1610425224
429,65.4167,-52.9,Maniitsoq,GL,-6.64,94,100,2.44,1610425225
430,52.7269,10.7361,Wittingen,DE,4.0,93,75,7.2,1610425227
431,-37.8333,140.7667,Mount Gambier,AU,22.0,43,0,7.2,1610425228
432,54.1667,93.3,Koshurnikovo,RU,-23.24,89,0,0.52,1610425229
433,31.5,34.4667,Gaza,PS,17.22,53,0,1.79,1610425230
434,27.3167,-112.2833,Santa Rosalía,MX,11.29,69,0,3.31,1610425231
435,47.1167,51.8833,Atyrau,KZ,-4.0,93,75,3.0,1610425233
436,17.8815,-76.4093,Morant Bay,JM,26.0,69,20,3.09,1610425234
437,-20.1,146.2667,Charters Towers,AU,29.1,66,96,5.0,1610425235
438,52.6333,29.7333,Forsytheganj,BY,-6.51,98,11,2.71,1610425237
439,27.6667,-105.1667,Camargo,MX,6.42,59,0,3.54,1610425238
440,12.1791,125.5072,San Policarpo,PH,25.4,90,100,9.72,1610425240
441,42.9019,133.9064,Preobrazheniye,RU,-3.88,92,99,5.15,1610425241
442,21.6333,110.5833,Huazhou,CN,15.31,27,0,4.99,1610425242
443,37.2711,-87.1764,Morehead,US,-2.78,74,90,1.54,1610425243
444,60.9167,-46.05,Narsaq,GL,5.0,33,75,10.29,1610425244
445,29.9833,76.5833,Pehowa,IN,10.77,49,0,3.52,1610425245
446,-22.4333,-151.3333,Moerai,PF,26.89,79,100,7.73,1610425246
447,33.4333,115.0333,Huaidian,CN,9.5,44,0,6.91,1610425248
448,-3.8,103.5333,Lahat,ID,23.75,92,100,1.74,1610425249
449,50.2503,58.4347,Khromtau,KZ,-19.2,94,99,1.37,1610425251
450,4.375,-7.7169,Harper,LR,25.39,86,96,3.61,1610425252
451,29.1081,21.2869,Awjilah,LY,16.4,42,100,5.11,1610425253
452,-16.9167,145.7667,Cairns,AU,28.89,78,75,5.14,1610424743
453,-32.85,-70.9667,Llaillay,CL,18.0,48,0,3.6,1610425256
454,65.9702,-18.5286,Dalvik,IS,-13.0,85,0,1.03,1610425258
455,32.9952,105.3247,Weihe,CN,1.55,68,0,2.23,1610425260
456,39.0733,63.5786,Turkmenabat,TM,-3.0,86,21,2.06,1610425262
457,-12.1167,-77.05,San Isidro,PE,21.0,83,40,4.63,1610425263
458,10.1667,-14.0333,Boffa,GN,22.42,83,42,0.06,1610425264
459,63.8284,20.2597,Umeå,SE,-2.0,93,90,12.35,1610425265
460,-21.35,165.15,Poya,NC,29.29,73,97,1.95,1610425266
461,21.1167,70.1167,Māngrol,IN,21.63,42,26,6.42,1610425043
462,53.0867,25.3219,Slonim,BY,-5.35,96,49,4.46,1610425270
463,-25.0519,33.6442,Xai-Xai,MZ,24.57,77,21,1.11,1610425271
464,68.8193,-51.1922,Qasigiannguit,GL,-4.0,86,90,1.54,1610425272
465,32.3502,-85.1999,Russell,US,7.0,93,90,3.09,1610425273
466,-23.3833,150.5,Rockhampton,AU,31.0,48,75,4.63,1610425146
467,60.4667,166.1,Tilichiki,RU,-28.33,86,82,4.63,1610425276
468,10.5208,119.9258,Osmeña,PH,27.04,75,71,11.48,1610425277
469,32.25,67.25,Zabul Province,AF,1.27,64,0,0.67,1610425278
470,27.2025,60.6848,Iranshahr,IR,6.0,11,0,3.09,1610425279
471,51.4,128.1333,Svobodnyy,RU,-24.1,89,100,2.82,1610425146
472,-35.7167,150.1833,Batemans Bay,AU,31.67,32,38,3.89,1610425283
473,11.2842,49.1816,Bosaso,SO,21.99,58,0,5.8,1610425284
474,6.4965,2.6036,Porto-Novo,BJ,27.0,94,75,3.6,1610425285
475,-5.1992,-39.2928,Quixeramobim,BR,23.33,86,89,1.56,1610425286
476,19.9103,109.6859,Lingao,CN,13.96,45,75,4.98,1610425287
477,51.2737,15.9366,Chojnów,PL,-0.56,76,100,5.57,1610425289
478,-26.5833,18.1333,Keetmanshoop,NA,20.0,68,71,1.54,1610425290
479,14.1022,-1.6306,Djibo,BF,21.12,21,0,4.57,1610425291
480,20.4833,-97.0167,Tecolutla,MX,14.4,83,100,4.1,1610425293
481,-12.5211,-76.7372,Chilca,PE,21.0,83,40,4.63,1610425294
482,40.8021,-124.1637,Eureka,US,14.44,65,100,0.45,1610425295
483,59.5667,150.8,Magadan,RU,-15.21,92,100,6.13,1610425296
484,60.0,-1.25,Sandwick,GB,2.0,75,0,5.66,1610425297
485,69.3833,178.4167,Leningradskiy,RU,-30.69,82,99,6.62,1610425298
486,40.2833,97.2,Yumen,CN,-6.41,69,37,18.13,1610425300
487,48.5348,28.7436,Vapnyarka,UA,-2.22,89,97,2.36,1610425301
488,62.6683,131.1683,Borogontsy,RU,-41.53,79,74,1.61,1610425302
489,29.8458,-90.1067,Estelle,US,5.56,87,90,4.12,1610425303
490,25.5198,90.2201,Tura,IN,22.22,43,0,1.86,1610425304
491,50.6321,87.9563,Ulagan,RU,-6.92,89,100,0.76,1610425305
492,-0.9131,122.8766,Biak,ID,29.94,65,97,0.45,1610425307
493,67.667,12.6934,Sørland,NO,-2.0,64,20,5.66,1610425308
494,4.4148,114.0089,Marabu,MY,30.0,74,40,1.03,1610425309
495,-13.8483,136.4192,Alyangula,AU,25.0,100,75,2.57,1610425310
496,12.7794,45.0367,Aden,YE,23.64,69,14,7.77,1610425119
497,7.9803,49.8164,Eyl,SO,21.09,69,1,8.15,1610425312
498,14.298,44.3779,Yarim,YE,5.69,64,0,2.2,1610425313
499,-1.7656,-55.8661,Oriximiná,BR,24.5,85,45,1.34,1610425315
500,55.7028,37.3822,Marfino,RU,-10.0,92,75,1.0,1610425316
501,24.3539,68.2671,Jati,PK,17.51,25,0,4.06,1610425317
502,-3.7661,-49.6725,Tucuruí,BR,23.0,95,100,1.06,1610425318
503,64.1835,-51.7216,Nuuk,GL,-5.0,93,90,4.12,1610425319
504,39.1834,-84.5333,Hamilton,US,-2.78,80,1,2.06,1610425064
505,13.4667,22.2,Adré,TD,14.23,34,0,5.87,1610425322
506,16.1833,-22.9167,Sal Rei,CV,20.0,64,75,8.23,1610425323
507,67.4667,86.5833,Igarka,RU,-26.04,89,98,2.36,1610425324
508,12.0828,99.8543,Kui Buri,TH,22.0,53,100,5.14,1610425325
509,18.6853,12.9164,Bilma,NE,17.61,27,0,2.61,1610425327
510,54.4299,31.8996,Sobolevo,RU,-8.64,97,85,2.71,1610425330
511,51.7122,105.8647,Babushkin,RU,-13.87,89,100,10.02,1610425331
512,1.3038,124.9112,Tondano,ID,31.0,66,40,4.12,1610425332
513,39.8532,3.1214,Alcúdia,ES,6.11,87,20,1.03,1610425334
514,50.0979,118.0369,Krasnokamensk,RU,-21.04,89,100,1.96,1610425336
515,45.7625,106.2708,Mandalgovi,MN,-8.37,85,99,9.29,1610425339
516,16.4833,76.3167,Tālīkota,IN,25.24,46,100,3.2,1610425340
517,51.5001,-107.0513,Outlook,CA,-1.0,86,75,3.6,1610425342
518,71.0357,27.8492,Mehamn,NO,-9.0,67,0,13.89,1610425343
519,57.3064,88.1667,Tegul'det,RU,-30.41,86,1,2.19,1610425345
520,-9.8756,-56.0861,Alta Floresta,BR,22.09,95,100,0.84,1610425346
521,58.5592,23.0826,Orissaare,EE,1.11,93,100,5.36,1610425347
522,67.8006,130.4114,Batagay-Alyta,RU,-39.6,79,68,0.68,1610425348
523,13.7796,124.39,Gigmoto,PH,25.12,73,92,8.73,1610425350
524,46.4764,134.2569,Luchegorsk,RU,-13.17,90,84,0.76,1610425351
525,45.3167,55.2,Beyneu,KZ,-3.42,97,99,3.5,1610425352
526,51.5,156.5167,Ozernovskiy,RU,-4.64,86,100,7.96,1610425353
527,25.2919,60.643,Chabahar,IR,18.07,29,8,1.0,1610425354
528,44.3683,-100.351,Pierre,US,0.56,100,13,2.68,1610425356
529,-16.0667,167.3833,Norsup,VU,30.13,68,100,2.7,1610425358
530,50.2334,-63.5986,Havre-St-Pierre,CA,-13.0,85,90,2.06,1610425359
531,-2.3889,40.4382,Witu,KE,26.0,78,75,2.57,1610425360
532,34.6381,-99.334,Altus,US,1.0,80,1,2.57,1610425363
533,-1.2667,104.0833,Simpang,ID,24.3,96,100,1.9,1610425364
534,31.6315,-8.0083,Marrakesh,MA,3.0,100,40,2.06,1610425300
535,-22.116,14.2845,Henties Bay,NA,20.0,86,90,0.89,1610425366
536,-11.0964,-77.6139,Hualmay,PE,20.85,85,84,3.2,1610425367
537,64.2956,41.9211,Lukovetskiy,RU,-27.0,76,0,2.0,1610425368
538,-5.2269,-75.6753,Lagunas,PE,22.74,97,100,1.02,1610425370
539,53.2831,92.4003,Yermakovskoye,RU,-18.9,91,100,1.6,1610425371
540,-21.3393,55.4781,Saint-Pierre,RE,29.0,74,75,3.6,1610425372
541,55.6848,76.7471,Vengerovo,RU,-27.6,86,100,6.76,1610425373
542,-3.432,10.6554,Mayumba,GA,25.39,87,92,4.66,1610425374
543,40.5153,-107.5464,Craig,US,-10.0,84,1,1.7,1610425375
544,39.6333,118.1833,Tangshan,CN,-3.33,76,0,3.73,1610425276
545,-3.9931,-79.2042,Loja,EC,12.22,93,21,0.98,1610425378
546,47.1687,-1.4693,Vertou,FR,7.0,93,90,4.63,1610425379
547,-1.5746,9.2618,Omboué,GA,24.88,86,99,1.97,1610425380
548,46.6166,10.7002,Laas,IT,-8.0,53,0,2.57,1610425381
549,29.3627,-100.8968,Del Rio,US,5.0,65,1,2.06,1610425382
