,Latitude,Longitude,City,Country,Max Temp.,Humidity,Cloudiness,Windiness,Date
0,-46.1927,168.8643,Mataura,NZ,25.38,34,0,0.14,1610424683
2,-34.4187,19.2345,Hermanus,ZA,20.56,89,88,3.13,1610424686
5,-34.5833,150.8552,Flinders,AU,30.56,56,100,2.24,1610424690
9,-16.4096,-67.5263,Chulumani,BO,17.3,77,100,0.65,1610424697
13,-54.8,-68.3,Ushuaia,AR,6.0,75,75,13.38,1610424702
14,-42.7826,147.0587,New Norfolk,AU,23.33,43,2,0.89,1610424703
19,-0.7393,-90.3518,Puerto Ayora,EC,23.33,94,13,2.14,1610424709
20,-9.8,-139.0333,Atuona,PF,25.33,80,1,6.4,1610424710
21,-24.8667,113.6333,Carnarvon,AU,29.0,70,0,8.75,1610424712
23,-20.5167,57.5167,Souillac,MU,26.0,94,75,7.2,1610424715
32,-21.3585,55.7679,Saint-Philippe,RE,29.0,74,75,3.6,1610424727
33,-34.5322,20.0403,Bredasdorp,ZA,19.0,94,93,6.69,1610424729
34,-36.8167,174.45,Muriwai Beach,NZ,25.0,74,45,4.47,1610424730
37,-33.918,25.5701,Port Elizabeth,ZA,20.0,94,90,4.63,1610424733
38,-8.9266,125.4092,Airai,TL,23.67,84,15,0.71,1610424734
39,-53.15,-70.9167,Punta Arenas,CL,5.0,81,0,10.8,1610424736
42,-24.7911,-50.0119,Castro,BR,19.23,97,41,3.69,1610424739
43,-25.4,-70.4833,Taltal,CL,17.72,75,69,0.46,1610424740
45,-4.1944,-40.4767,Varjota,BR,23.15,76,100,2.92,1610424730
46,-38.2667,141.9667,Codrington,AU,17.94,55,43,5.89,1610424665
49,-6.1349,12.3689,Soyo,AO,24.6,83,87,1.71,1610424751
50,-33.65,115.3333,Busselton,AU,27.22,42,7,1.79,1610424753
55,-23.6649,27.7443,Ellisras,ZA,20.63,75,0,3.47,1610424759
56,-46.1333,167.6833,Tuatapere,NZ,21.24,48,15,2.49,1610424760
58,-12.2569,44.5319,Domoni,KM,26.75,79,70,4.95,1610424762
65,-20.3428,57.7575,Bambous Virieux,MU,27.78,94,75,7.2,1610424770
66,-46.6,168.3333,Bluff,NZ,17.89,62,16,2.88,1610424772
67,-21.2,-175.2,Vaini,TO,28.0,89,75,4.63,1610424774
69,-23.1203,-134.9692,Rikitea,PF,25.73,78,37,9.46,1610424776
70,-28.7667,114.6,Geraldton,AU,28.0,44,97,9.26,1610424777
73,-7.4706,-34.8086,Pitimbu,BR,25.0,94,40,3.5,1610424782
76,-25.2406,130.9889,Yulara,AU,38.0,11,0,6.69,1610424787
79,-20.0064,57.6608,Grand Gaube,MU,27.78,84,100,4.02,1610424776
81,-3.6667,152.4333,Namatanai,PG,28.01,76,93,2.05,1610424792
82,-42.913,147.3532,Sandy Bay,AU,23.33,45,20,9.26,1610424509
83,-22.2763,166.4572,Noumea,NC,28.0,78,0,5.66,1610424770
84,-6.9811,-34.8339,Cabedelo,BR,25.0,94,40,3.1,1610424796
89,-29.9533,-71.3436,Coquimbo,CL,15.0,88,0,2.57,1610424803
97,-13.4584,25.8338,Kasempa,ZM,17.6,98,100,2.1,1610424813
100,-30.6733,-51.3958,Tapes,BR,22.01,88,100,2.19,1610424817
108,-33.5906,26.891,Port Alfred,ZA,20.56,97,77,5.03,1610424827
109,-25.1667,45.05,Beloha,MG,25.49,73,0,4.36,1610424828
110,-2.5744,150.7967,Kavieng,PG,29.27,72,100,4.39,1610424829
113,-33.9258,18.4232,Cape Town,ZA,20.0,82,0,3.6,1610424767
114,-22.9661,-42.0278,Arraial do Cabo,BR,25.0,88,20,7.2,1610424554
117,-20.7333,139.5,Mount Isa,AU,36.0,28,40,2.06,1610424837
119,-3.8004,102.2655,Bengkulu,ID,23.79,91,100,5.78,1610424840
121,-3.8278,-78.7594,Yantzaza,EC,19.16,84,78,0.39,1610424842
124,-6.8844,112.2051,Labuhan,ID,29.6,73,100,3.72,1610424846
125,-20.3167,118.5667,Port Hedland,AU,36.0,52,1,6.69,1610424847
129,-17.7333,-149.15,Tautira,PF,30.0,61,75,2.06,1610424853
131,-15.1961,12.1522,Mossamedes,AO,21.45,66,63,2.5,1610424855
133,-30.1811,-50.2056,Cidreira,BR,23.24,94,100,5.45,1610424857
134,-38.4667,176.7,Murupara,NZ,23.89,70,96,1.34,1610424858
140,-20.4081,57.7,Mahébourg,MU,26.0,94,75,7.2,1610424689
141,-46.2817,169.8464,Kaitangata,NZ,16.67,73,0,4.02,1610424866
142,-5.1989,-35.4608,Touros,BR,25.0,83,40,1.54,1610424868
144,-13.7,-76.2167,Pisco,PE,21.11,88,0,2.57,1610424870
147,-0.6,73.0833,Hithadhoo,MV,27.39,76,75,7.26,1610424875
152,-17.8833,15.0667,Ongandjera,NA,20.25,52,94,2.78,1610424880
157,-16.4833,-151.75,Faanui,PF,27.72,74,100,8.26,1610424886
159,-37.6167,-73.65,Lebu,CL,11.13,75,0,8.06,1610424620
161,-20.9667,164.7,Voh,NC,29.63,74,94,1.69,1610424891
165,-38.3739,-60.2798,Tres Arroyos,AR,11.06,60,0,2.32,1610424895
168,-33.0117,17.9442,Saldanha,ZA,16.0,82,0,1.54,1610424899
181,-12.1167,-73.0,Pangoa,PE,20.49,95,100,1.0,1610424918
183,-28.55,16.4333,Oranjemund,NA,17.3,87,99,3.73,1610424920
185,-21.2078,-159.775,Avarua,CK,29.0,70,75,7.2,1610424922
188,-38.0023,-57.5575,Mar del Plata,AR,15.56,58,0,3.09,1610424700
189,-15.5333,167.1667,Luganville,VU,30.04,73,100,2.88,1610424928
192,-5.6667,132.75,Tual,ID,29.66,68,17,3.54,1610424932
197,-33.0153,27.9116,East London,ZA,21.0,100,40,1.03,1610424937
199,-0.8725,14.8206,Ewo,CG,22.95,82,18,2.49,1610424940
203,-39.0333,177.3667,Wairoa,NZ,23.33,60,13,4.02,1610424945
205,-42.8794,147.3294,Hobart,AU,23.33,45,20,9.26,1610424754
206,-34.0033,24.7314,Kruisfontein,ZA,20.0,95,100,5.84,1610424948
212,-15.4311,-74.6158,Acarí,PE,21.78,71,100,1.84,1610424955
219,-42.7692,-65.0385,Puerto Madryn,AR,13.85,47,15,4.07,1610424963
232,-33.8667,121.9,Esperance,AU,29.0,28,96,3.09,1610424980
233,-9.4333,159.95,Honiara,SB,27.02,85,100,3.49,1610424731
234,-22.9337,26.5703,Kalamare,BW,19.52,73,1,6.49,1610424982
237,-35.6167,174.5,Ngunguru,NZ,25.0,61,77,4.47,1610424985
239,-3.7703,-70.3831,Puerto Nariño,CO,25.0,100,75,0.79,1610424988
240,-8.45,115.6167,Amlapura,ID,30.0,79,20,3.6,1610424989
243,-26.3667,-70.05,Diego de Almagro,CL,14.15,48,83,0.23,1610424992
244,-0.9492,100.3543,Padang,ID,27.41,72,100,1.28,1610424994
245,-14.25,129.55,Port Keats,AU,33.79,55,91,3.07,1610424995
256,-35.1667,173.1667,Ahipara,NZ,21.37,63,77,2.05,1610425010
259,-34.4833,-54.3333,Rocha,UY,20.73,92,100,6.66,1610425013
262,-12.7333,-69.1833,Tambopata,PE,23.55,94,99,1.42,1610425017
273,-8.103,156.8419,Gizo Government Station,SB,27.51,82,100,5.6,1610425030
276,-19.9842,57.6142,Cap Malheureux,MU,27.78,84,100,4.47,1610425033
283,-14.6585,17.691,Menongue,AO,17.12,85,100,1.66,1610425043
288,-10.6167,150.6667,Samarai,PG,30.82,69,77,4.28,1610425049
289,-22.9575,14.5053,Walvis Bay,NA,20.0,88,75,1.03,1610425050
292,-25.6533,-48.5128,Pontal do Paraná,BR,20.0,84,11,5.36,1610425053
294,-31.6333,-60.7,Santa Fe,AR,21.24,66,100,7.02,1610425036
295,-19.55,169.2667,Isangel,VU,27.0,94,90,3.19,1610425055
304,-16.1667,49.7667,Mananara,MG,25.36,72,6,1.39,1610425068
306,-40.8135,-62.9967,Viedma,AR,14.05,36,0,3.45,1610425072
308,-5.5569,-80.8222,Sechura,PE,22.53,73,52,5.17,1610425074
310,-2.6741,141.3028,Vanimo,PG,29.97,68,51,3.36,1610425076
311,-21.6403,-41.0511,São João da Barra,BR,24.53,86,4,7.68,1610425078
315,-2.0226,147.2712,Lorengau,PG,29.11,75,100,3.53,1610425082
323,-22.2833,44.5167,Ankazoabo,MG,25.7,70,0,1.48,1610425093
334,-29.6643,17.8865,Springbok,ZA,17.36,51,3,0.82,1610425107
336,-14.9003,50.2788,Antalaha,MG,25.12,78,17,2.01,1610425109
340,-3.4167,114.85,Martapura,ID,28.0,78,94,3.09,1610425115
343,-26.6481,15.1594,Lüderitz,NA,17.56,85,11,5.79,1610425118
348,-23.85,151.25,Gladstone,AU,29.0,54,75,8.75,1610425125
353,-45.8667,-67.5,Comodoro Rivadavia,AR,14.0,35,0,9.26,1610425013
354,-16.7,-151.0167,Fare,PF,27.23,77,100,8.52,1610425132
363,-3.2033,-52.2064,Altamira,BR,22.18,96,100,1.03,1610425143
364,-35.3333,-72.4167,Constitución,CL,12.95,60,0,3.99,1610424956
366,-45.4167,167.7167,Te Anau,NZ,22.37,47,0,2.64,1610425146
367,-0.6136,-47.3561,Salinópolis,BR,26.01,85,63,4.44,1610425148
369,-33.6971,-53.4616,Chui,UY,20.89,91,100,3.25,1610425150
372,-45.8742,170.5036,Dunedin,NZ,18.09,72,0,5.66,1610425153
385,-38.9516,-68.0591,Neuquén,AR,10.0,57,0,1.54,1610425170
391,-14.4667,132.2667,Katherine,AU,35.0,43,3,2.57,1610425177
394,-0.9,-89.6,Puerto Baquerizo Moreno,EC,23.14,87,3,4.21,1610425180
395,-20.4431,-53.7592,Ribas do Rio Pardo,BR,26.46,61,77,0.75,1610425181
402,-6.8205,30.4389,Karema,TZ,21.08,82,100,2.07,1610425189
404,-23.65,-70.4,Antofagasta,CL,18.0,77,75,2.57,1610425098
411,-34.7333,135.8667,Port Lincoln,AU,19.89,52,1,5.26,1610425200
413,-30.2752,-57.6007,Bella Union,UY,21.47,94,100,4.87,1610425204
418,-21.3667,55.6167,Saint-Joseph,RE,29.0,74,75,3.6,1610425210
425,-20.2078,57.7625,Quatre Cocos,MU,27.78,94,75,7.2,1610425220
431,-37.8333,140.7667,Mount Gambier,AU,22.0,43,0,7.2,1610425228
437,-20.1,146.2667,Charters Towers,AU,29.1,66,96,5.0,1610425235
446,-22.4333,-151.3333,Moerai,PF,26.89,79,100,7.73,1610425246
448,-3.8,103.5333,Lahat,ID,23.75,92,100,1.74,1610425249
452,-16.9167,145.7667,Cairns,AU,28.89,78,75,5.14,1610424743
453,-32.85,-70.9667,Llaillay,CL,18.0,48,0,3.6,1610425256
457,-12.1167,-77.05,San Isidro,PE,21.0,83,40,4.63,1610425263
460,-21.35,165.15,Poya,NC,29.29,73,97,1.95,1610425266
463,-25.0519,33.6442,Xai-Xai,MZ,24.57,77,21,1.11,1610425271
466,-23.3833,150.5,Rockhampton,AU,31.0,48,75,4.63,1610425146
472,-35.7167,150.1833,Batemans Bay,AU,31.67,32,38,3.89,1610425283
475,-5.1992,-39.2928,Quixeramobim,BR,23.33,86,89,1.56,1610425286
478,-26.5833,18.1333,Keetmanshoop,NA,20.0,68,71,1.54,1610425290
481,-12.5211,-76.7372,Chilca,PE,21.0,83,40,4.63,1610425294
492,-0.9131,122.8766,Biak,ID,29.94,65,97,0.45,1610425307
495,-13.8483,136.4192,Alyangula,AU,25.0,100,75,2.57,1610425310
499,-1.7656,-55.8661,Oriximiná,BR,24.5,85,45,1.34,1610425315
502,-3.7661,-49.6725,Tucuruí,BR,23.0,95,100,1.06,1610425318
520,-9.8756,-56.0861,Alta Floresta,BR,22.09,95,100,0.84,1610425346
529,-16.0667,167.3833,Norsup,VU,30.13,68,100,2.7,1610425358
531,-2.3889,40.4382,Witu,KE,26.0,78,75,2.57,1610425360
533,-1.2667,104.0833,Simpang,ID,24.3,96,100,1.9,1610425364
535,-22.116,14.2845,Henties Bay,NA,20.0,86,90,0.89,1610425366
536,-11.0964,-77.6139,Hualmay,PE,20.85,85,84,3.2,1610425367
538,-5.2269,-75.6753,Lagunas,PE,22.74,97,100,1.02,1610425370
540,-21.3393,55.4781,Saint-Pierre,RE,29.0,74,75,3.6,1610425372
542,-3.432,10.6554,Mayumba,GA,25.39,87,92,4.66,1610425374
545,-3.9931,-79.2042,Loja,EC,12.22,93,21,0.98,1610425378
547,-1.5746,9.2618,Omboué,GA,24.88,86,99,1.97,1610425380
